[
  {
    "id": "bkk",
    "name_th": "กรุงเทพมหานคร",
    "lat": 13.7563,
    "lon": 100.5018
  },
  {
    "id": "kbi",
    "name_th": "กระบี่",
    "lat": 8.0863,
    "lon": 98.9063
  },
  {
    "id": "kri",
    "name_th": "กาญจนบุรี",
    "lat": 14.0159,
    "lon": 99.5336
  },
  {
    "id": "ksn",
    "name_th": "กาฬสินธุ์",
    "lat": 16.4322,
    "lon": 103.5061
  },
  {
    "id": "kpt",
    "name_th": "กำแพงเพชร",
    "lat": 16.4828,
    "lon": 99.5227
  },
  {
    "id": "kkn",
    "name_th": "ขอนแก่น",
    "lat": 16.4322,
    "lon": 102.8236
  },
  {
    "id": "cti",
    "name_th": "จันทบุรี",
    "lat": 12.6113,
    "lon": 102.1039
  },
  {
    "id": "cco",
    "name_th": "ฉะเชิงเทรา",
    "lat": 13.6904,
    "lon": 101.0719
  },
  {
    "id": "cbi",
    "name_th": "ชลบุรี",
    "lat": 13.3611,
    "lon": 100.9847
  },
  {
    "id": "cnt",
    "name_th": "ชัยนาท",
    "lat": 15.1852,
    "lon": 100.1251
  },
  {
    "id": "cpm",
    "name_th": "ชัยภูมิ",
    "lat": 15.8068,
    "lon": 102.0315
  },
  {
    "id": "cmp",
    "name_th": "ชุมพร",
    "lat": 10.493,
    "lon": 99.1809
  },
  {
    "id": "cri",
    "name_th": "เชียงราย",
    "lat": 19.9105,
    "lon": 99.8406
  },
  {
    "id": "cmi",
    "name_th": "เชียงใหม่",
    "lat": 18.7953,
    "lon": 98.962
  },
  {
    "id": "trg",
    "name_th": "ตรัง",
    "lat": 7.5563,
    "lon": 99.6114
  },
  {
    "id": "trt",
    "name_th": "ตราด",
    "lat": 12.2428,
    "lon": 102.5175
  },
  {
    "id": "tak",
    "name_th": "ตาก",
    "lat": 16.884,
    "lon": 99.1258
  },
  {
    "id": "nyk",
    "name_th": "นครนายก",
    "lat": 14.2069,
    "lon": 101.2131
  },
  {
    "id": "npt",
    "name_th": "นครปฐม",
    "lat": 13.8199,
    "lon": 100.0443
  },
  {
    "id": "npm",
    "name_th": "นครพนม",
    "lat": 17.4048,
    "lon": 104.7879
  },
  {
    "id": "nma",
    "name_th": "นครราชสีมา",
    "lat": 14.9799,
    "lon": 102.0978
  },
  {
    "id": "nsn",
    "name_th": "นครศรีธรรมราช",
    "lat": 8.4333,
    "lon": 99.9622
  },
  {
    "id": "nsa",
    "name_th": "นครสวรรค์",
    "lat": 15.7001,
    "lon": 100.1388
  },
  {
    "id": "nbi",
    "name_th": "นนทบุรี",
    "lat": 13.8591,
    "lon": 100.5217
  },
  {
    "id": "nwt",
    "name_th": "นราธิวาส",
    "lat": 6.4255,
    "lon": 101.8253
  },
  {
    "id": "nan",
    "name_th": "น่าน",
    "lat": 18.7756,
    "lon": 100.773
  },
  {
    "id": "bkn",
    "name_th": "บึงกาฬ",
    "lat": 18.3606,
    "lon": 103.6464
  },
  {
    "id": "brm",
    "name_th": "บุรีรัมย์",
    "lat": 14.993,
    "lon": 103.1029
  },
  {
    "id": "pte",
    "name_th": "ปทุมธานี",
    "lat": 14.0208,
    "lon": 100.525
  },
  {
    "id": "pkn",
    "name_th": "ประจวบคีรีขันธ์",
    "lat": 11.8105,
    "lon": 99.7971
  },
  {
    "id": "pri",
    "name_th": "ปราจีนบุรี",
    "lat": 14.051,
    "lon": 101.3736
  },
  {
    "id": "ptn",
    "name_th": "ปัตตานี",
    "lat": 6.8673,
    "lon": 101.2501
  },
  {
    "id": "pya",
    "name_th": "พระนครศรีอยุธยา",
    "lat": 14.3532,
    "lon": 100.569
  },
  {
    "id": "pyo",
    "name_th": "พะเยา",
    "lat": 19.1666,
    "lon": 99.9022
  },
  {
    "id": "pna",
    "name_th": "พังงา",
    "lat": 8.4501,
    "lon": 98.5286
  },
  {
    "id": "plg",
    "name_th": "พัทลุง",
    "lat": 7.6166,
    "lon": 100.074
  },
  {
    "id": "pic",
    "name_th": "พิจิตร",
    "lat": 16.4419,
    "lon": 100.3488
  },
  {
    "id": "phs",
    "name_th": "พิษณุโลก",
    "lat": 16.8211,
    "lon": 100.2659
  },
  {
    "id": "pbi",
    "name_th": "เพชรบุรี",
    "lat": 13.1118,
    "lon": 99.9447
  },
  {
    "id": "pnb",
    "name_th": "เพชรบูรณ์",
    "lat": 16.4234,
    "lon": 101.155
  },
  {
    "id": "pre",
    "name_th": "แพร่",
    "lat": 18.1446,
    "lon": 100.141
  },
  {
    "id": "pkt",
    "name_th": "ภูเก็ต",
    "lat": 7.8804,
    "lon": 98.3923
  },
  {
    "id": "mkm",
    "name_th": "มหาสารคาม",
    "lat": 16.1852,
    "lon": 103.3023
  },
  {
    "id": "mdh",
    "name_th": "มุกดาหาร",
    "lat": 16.5443,
    "lon": 104.7174
  },
  {
    "id": "msn",
    "name_th": "แม่ฮ่องสอน",
    "lat": 19.3006,
    "lon": 97.9654
  },
  {
    "id": "yst",
    "name_th": "ยโสธร",
    "lat": 15.7926,
    "lon": 104.1332
  },
  {
    "id": "yla",
    "name_th": "ยะลา",
    "lat": 6.5411,
    "lon": 101.2816
  },
  {
    "id": "ret",
    "name_th": "ร้อยเอ็ด",
    "lat": 16.0538,
    "lon": 103.652
  },
  {
    "id": "rng",
    "name_th": "ระนอง",
    "lat": 9.9658,
    "lon": 98.6348
  },
  {
    "id": "ryg",
    "name_th": "ระยอง",
    "lat": 12.6814,
    "lon": 101.2816
  },
  {
    "id": "rbr",
    "name_th": "ราชบุรี",
    "lat": 13.5358,
    "lon": 99.8134
  },
  {
    "id": "lri",
    "name_th": "ลพบุรี",
    "lat": 14.7985,
    "lon": 100.6534
  },
  {
    "id": "lpg",
    "name_th": "ลำปาง",
    "lat": 18.2855,
    "lon": 99.4927
  },
  {
    "id": "lpn",
    "name_th": "ลำพูน",
    "lat": 18.5745,
    "lon": 99.0087
  },
  {
    "id": "lei",
    "name_th": "เลย",
    "lat": 17.486,
    "lon": 101.7223
  },
  {
    "id": "ssk",
    "name_th": "ศรีสะเกษ",
    "lat": 15.1186,
    "lon": 104.322
  },
  {
    "id": "snk",
    "name_th": "สกลนคร",
    "lat": 17.1664,
    "lon": 104.1486
  },
  {
    "id": "ska",
    "name_th": "สงขลา",
    "lat": 7.1898,
    "lon": 100.5954
  },
  {
    "id": "stn",
    "name_th": "สตูล",
    "lat": 6.6238,
    "lon": 100.0674
  },
  {
    "id": "spk",
    "name_th": "สมุทรปราการ",
    "lat": 13.5991,
    "lon": 100.5968
  },
  {
    "id": "skm",
    "name_th": "สมุทรสงคราม",
    "lat": 13.4098,
    "lon": 100.0023
  },
  {
    "id": "skn",
    "name_th": "สมุทรสาคร",
    "lat": 13.5475,
    "lon": 100.2736
  },
  {
    "id": "sko",
    "name_th": "สระแก้ว",
    "lat": 13.824,
    "lon": 102.0646
  },
  {
    "id": "sri",
    "name_th": "สระบุรี",
    "lat": 14.5289,
    "lon": 100.9101
  },
  {
    "id": "sbr",
    "name_th": "สิงห์บุรี",
    "lat": 14.8936,
    "lon": 100.3967
  },
  {
    "id": "sko",
    "name_th": "สุโขทัย",
    "lat": 17.0051,
    "lon": 99.8226
  },
  {
    "id": "spb",
    "name_th": "สุพรรณบุรี",
    "lat": 14.4742,
    "lon": 100.1123
  },
  {
    "id": "sni",
    "name_th": "สุราษฎร์ธานี",
    "lat": 9.1333,
    "lon": 99.3333
  },
  {
    "id": "srn",
    "name_th": "สุรินทร์",
    "lat": 14.8818,
    "lon": 103.4936
  },
  {
    "id": "nki",
    "name_th": "หนองคาย",
    "lat": 17.8785,
    "lon": 102.742
  },
  {
    "id": "nbp",
    "name_th": "หนองบัวลำภู",
    "lat": 17.2045,
    "lon": 102.4407
  },
  {
    "id": "atg",
    "name_th": "อ่างทอง",
    "lat": 14.5896,
    "lon": 100.455
  },
  {
    "id": "amn",
    "name_th": "อำนาจเจริญ",
    "lat": 15.861,
    "lon": 104.6258
  },
  {
    "id": "udn",
    "name_th": "อุดรธานี",
    "lat": 17.4138,
    "lon": 102.7872
  },
  {
    "id": "utt",
    "name_th": "อุตรดิตถ์",
    "lat": 17.6201,
    "lon": 100.0993
  },
  {
    "id": "utn",
    "name_th": "อุทัยธานี",
    "lat": 15.3828,
    "lon": 100.0247
  },
  {
    "id": "ubn",
    "name_th": "อุบลราชธานี",
    "lat": 15.2287,
    "lon": 104.857
  }
]